[
   {
      "region":"Midwest",
      "coordinate":{
         "lat":44.500000,
         "lon":-89.500000
      },
      "name":"Wisconsin, USA"
   },
   {
      "region":"Midwest",
      "coordinate":{
         "lat":44.500000,
         "lon":-100.000000
      },
      "name":"South Dakota, USA"
   },
   {
      "region":"Midwest",
      "coordinate":{
         "lat":41.500000,
         "lon":-100.000000
      },
      "name":"Nebraska, USA"
   },
   {
      "region":"Midwest",
      "coordinate":{
         "lat":38.500000,
         "lon":-98.000000
      },
      "name":"Kansas, USA"
   },
   {
      "region":"Midwest",
      "coordinate":{
         "lat":40.000000,
         "lon":-89.000000
      },
      "name":"Illinois, USA"
   },
   {
      "region":"Midwest",
      "coordinate":{
         "lat":40.273502,
         "lon":-86.126976
      },
      "name":"Indiana, USA"
   },
   {
      "region":"Midwest",
      "coordinate":{
         "lat":38.573936,
         "lon":-92.603760
      },
      "name":"Missouri, USA"
   },
   {
      "region":"Midwest",
      "coordinate":{
         "lat":44.182205,
         "lon":-84.506836
      },
      "name":"Michigan, USA"
   },
   {
      "region":"Midwest",
      "coordinate":{
         "lat":47.650589,
         "lon":-100.437012
      },
      "name":"North Dakota, USA"
   },
   {
      "region":"Midwest",
      "coordinate":{
         "lat":46.392410,
         "lon":-94.636230
      },
      "name":"Minnesota, USA"
   },
   {
      "region":"Midwest",
      "coordinate":{
         "lat":40.367474,
         "lon":-82.996216
      },
      "name":"Ohio, USA"
   },
   {
      "region":"Midwest",
      "coordinate":{
         "lat":42.032974,
         "lon":-93.581543
      },
      "name":"Iowa, the USA"
   },
   {
      "region":"Northeast",
      "coordinate":{
         "lat":44.000000,
         "lon":-72.699997
      },
      "name":"Vermont, USA"
   },
   {
      "region":"Northeast",
      "coordinate":{
         "lat":41.700001,
         "lon":-71.500000
      },
      "name":"Rhode Island, USA"
   },
   {
      "region":"Northeast",
      "coordinate":{
         "lat":44.000000,
         "lon":-71.500000
      },
      "name":"New Hampshire, USA"
   },
   {
      "region":"Northeast",
      "coordinate":{
         "lat":43.000000,
         "lon":-75.000000
      },
      "name":"New York, USA"
   },
   {
      "region":"Northeast",
      "coordinate":{
         "lat":39.000000,
         "lon":-75.500000
      },
      "name":"Delaware, USA"
   },
   {
      "region":"Northeast",
      "coordinate":{
         "lat":41.599998,
         "lon":-72.699997
      },
      "name":"Connecticut, USA"
   },
   {
      "region":"Northeast",
      "coordinate":{
         "lat":45.367584,
         "lon":-68.972168
      },
      "name":"Maine, USA"
   },
   {
      "region":"Northeast",
      "coordinate":{
         "lat":39.833851,
         "lon":-74.871826
      },
      "name":"New Jersey, USA"
   },
   {
      "region":"Northeast",
      "coordinate":{
         "lat":41.203323,
         "lon":-77.194527
      },
      "name":"Pennsylvania, USA"
   },
   {
      "region":"Northeast",
      "coordinate":{
         "lat":39.045753,
         "lon":-76.641273
      },
      "name":"Maryland, USA"
   },
   {
      "region":"Northeast",
      "coordinate":{
         "lat":42.407211,
         "lon":-71.382439
      },
      "name":"Massachusetts, USA"
   },
   {
      "region":"South",
      "coordinate":{
         "lat":39.000000,
         "lon":-80.500000
      },
      "name":"West Virginia, USA"
   },
   {
      "region":"South",
      "coordinate":{
         "lat":31.000000,
         "lon":-100.000000
      },
      "name":"Texas, the USA"
   },
   {
      "region":"South",
      "coordinate":{
         "lat":33.000000,
         "lon":-90.000000
      },
      "name":"Mississippi, USA"
   },
   {
      "region":"South",
      "coordinate":{
         "lat":34.799999,
         "lon":-92.199997
      },
      "name":"Arkansas, USA"
   },
   {
      "region":"South",
      "coordinate":{
         "lat":27.994402,
         "lon":-81.760254
      },
      "name":"Florida, USA"
   },
   {
      "region":"South",
      "coordinate":{
         "lat":33.247875,
         "lon":-83.441162
      },
      "name":"Georgia, the USA"
   },
   {
      "region":"South",
      "coordinate":{
         "lat":35.860119,
         "lon":-86.660156
      },
      "name":"Tennessee, USA"
   },
   {
      "region":"South",
      "coordinate":{
         "lat":37.926868,
         "lon":-78.024902
      },
      "name":"Virginia, USA"
   },
   {
      "region":"South",
      "coordinate":{
         "lat":37.839333,
         "lon":-84.270020
      },
      "name":"Kentucky, USA"
   },
   {
      "region":"South",
      "coordinate":{
         "lat":36.084621,
         "lon":-96.921387
      },
      "name":"Oklahoma, USA"
   },
   {
      "region":"South",
      "coordinate":{
         "lat":32.318230,
         "lon":-86.902298
      },
      "name":"Alabama, USA"
   },
   {
      "region":"South",
      "coordinate":{
         "lat":34.307144,
         "lon":-106.018066
      },
      "name":"New Mexico, USA"
   },
   {
      "region":"South",
      "coordinate":{
         "lat":33.836082,
         "lon":-81.163727
      },
      "name":"South Carolina, USA"
   },
   {
      "region":"South",
      "coordinate":{
         "lat":34.048927,
         "lon":-111.093735
      },
      "name":"Arizona, USA"
   },
   {
      "region":"South",
      "coordinate":{
         "lat":35.782169,
         "lon":-80.793457
      },
      "name":"North Carolina, USA"
   },
   {
      "region":"South",
      "coordinate":{
         "lat":30.391830,
         "lon":-92.329102
      },
      "name":"Louisiana, USA"
   },
   {
      "region":"West",
      "coordinate":{
         "lat":39.419220,
         "lon":-111.950684
      },
      "name":"Utah, USA"
   },
   {
      "region":"West",
      "coordinate":{
         "lat":39.113014,
         "lon":-105.358887
      },
      "name":"Colorado, USA"
   },
   {
      "region":"West",
      "coordinate":{
         "lat":36.778259,
         "lon":-119.417931
      },
      "name":"California, USA"
   },
   {
      "region":"West",
      "coordinate":{
         "lat":44.068203,
         "lon":-114.742043
      },
      "name":"Idaho, USA"
   },
   {
      "region":"West",
      "coordinate":{
         "lat":43.075970,
         "lon":-107.290283
      },
      "name":"Wyoming, USA"
   },
   {
      "region":"West",
      "coordinate":{
         "lat":44.000000,
         "lon":-120.500000
      },
      "name":"Oregon, USA"
   },
   {
      "region":"West",
      "coordinate":{
         "lat":39.876019,
         "lon":-117.224121
      },
      "name":"Nevada, USA"
   },
   {
      "region":"West",
      "coordinate":{
         "lat":19.741755,
         "lon":-155.844437
      },
      "name":"Hawaii, USA"
   },
   {
      "region":"West",
      "coordinate":{
         "lat":66.160507,
         "lon":-153.369141
      },
      "name":"Alaska, USA"
   },
   {
      "region":"West",
      "coordinate":{
         "lat":46.965260,
         "lon":-109.533691
      },
      "name":"Montana, USA"
   },
   {
      "region":"West",
      "coordinate":{
         "lat":47.751076,
         "lon":-120.740135
      },
      "name":"Washington State, USA"
   }
]